country,city,lat,lon,temp,max_temp,humid,cover,wind
US,{'albany'},42.6001,-73.9662,83.77,87.75,76,35,4.41
ID,{'manggar'},-2.8833,108.2667,81.9,81.9,75,41,13.42
TZ,{'kilindoni'},-7.9139,39.6668,75.83,75.83,69,0,14.85
ZA,{'east london'},-33.0153,27.9116,61.11,61.11,68,9,17.49
AU,{'busselton'},-33.65,115.3333,47.05,47.05,78,35,5.5
GL,{'qaanaaq'},77.484,-69.3632,42.17,42.17,88,100,2.84
CL,{'punta arenas'},-53.15,-70.9167,46.51,46.51,81,75,9.22
PF,{'rikitea'},-23.1203,-134.9692,72.03,72.03,70,11,12.5
AU,{'karratha'},-20.7377,116.8463,60.78,60.78,22,0,18.05
AU,{'rockhampton'},-23.3833,150.5,66.09,66.09,77,20,11.5
CA,{'clyde river'},70.4692,-68.5914,47.14,47.14,62,46,4.52
RU,{'lesozavodsk'},45.4794,133.4244,63.73,63.73,68,88,3.06
CA,{'haines junction'},60.7522,-137.5108,58.95,58.95,44,100,3.44
ZA,{'cape town'},-33.9258,18.4232,52.07,53.11,92,79,1.99
ZA,{'hermanus'},-34.4187,19.2345,49.8,50.9,85,76,18.28
US,{'kahului'},20.8947,-156.47,85.17,87.82,66,40,21.85
MV,{'hithadhoo'},-0.6,73.0833,80.94,80.94,72,100,7.09
NO,{'vardo'},70.3705,31.1107,51.58,51.58,98,51,5.84
ZA,{'port elizabeth'},-33.918,25.5701,55.69,55.69,82,0,9.22
MU,{'mahebourg'},-20.4081,57.7,70.09,71.26,88,40,9.22
GL,{'ilulissat'},69.2167,-51.1,48.22,48.22,71,20,6.91
CK,{'avarua'},-21.2078,-159.775,75.25,75.25,88,90,8.05
SD,{'umm kaddadah'},13.6017,26.6876,82.56,82.56,59,99,7.63
AR,{'mar del plata'},-38.0023,-57.5575,46.42,46.42,71,75,5.75
AZ,{'mincivan'},39.0294,46.7185,78.55,78.55,39,0,0.22
US,{'saint anthony'},45.0205,-93.218,82.51,84.13,31,1,4.0
NO,{'oksfjord'},70.2396,22.3479,55.47,55.47,98,100,5.84
BR,{'capitao poco'},-1.7464,-47.0594,74.14,74.14,96,88,3.89
HK,{'victoria'},22.2855,114.1577,83.28,83.97,86,97,5.79
ID,{'banda aceh'},5.5577,95.3222,77.54,77.54,83,100,13.49
AU,{'broken hill'},-31.95,141.4333,48.43,48.43,68,0,9.78
RU,{'talnakh'},69.4865,88.3972,42.6,42.6,94,100,6.13
UY,{'chuy'},-33.6971,-53.4616,43.84,43.84,80,5,2.8
NZ,{'bluff'},-46.6,168.3333,58.8,58.8,74,100,17.76
PT,{'ribeira grande'},38.5167,-28.7,73.08,73.08,84,10,14.45
RU,{'usinsk'},65.9939,57.5281,54.81,54.81,72,94,11.79
IN,{'kavaratti'},10.5669,72.642,81.79,81.79,76,100,19.01
RU,{'pevek'},69.7008,170.3133,38.8,38.8,74,95,8.12
CN,{'yumen'},40.2833,97.2,64.9,64.9,50,0,7.49
RU,{'lavrentiya'},65.5833,-171.0,42.78,42.78,64,100,5.82
CN,{'wanning'},18.8003,110.3967,81.72,81.72,92,99,6.93
NO,{'kjollefjord'},70.9457,27.3465,54.64,54.64,94,89,9.17
US,{'hilo'},19.7297,-155.09,81.23,83.93,73,20,9.22
US,{'hattiesburg'},31.3271,-89.2903,78.55,79.29,87,1,0.0
CN,{'gannan'},47.9147,123.5031,59.9,59.9,84,62,9.95
JP,{'katsuura'},35.1333,140.3,77.11,77.11,91,100,10.29
PG,{'daru'},-9.0763,143.2092,78.1,78.1,88,98,16.08
NZ,{'mataura'},-46.1927,168.8643,58.48,58.48,80,100,6.22
CL,{'rengo'},-34.4167,-70.8667,47.23,47.23,41,28,1.68
US,{'kapaa'},22.0752,-159.319,81.82,84.52,72,75,1.99
CA,{'yellowknife'},62.456,-114.3525,56.73,56.73,46,100,12.12
BR,{'castro'},-24.7911,-50.0119,53.15,53.15,97,79,8.93
AR,{'ushuaia'},-54.8,-68.3,40.66,40.66,93,40,18.41
US,{'mayo'},38.8876,-76.5119,78.24,86.99,85,75,3.44
US,{'fortuna'},40.5982,-124.1573,63.19,63.66,77,1,12.66
CN,{'yatou'},37.15,122.3833,76.82,76.82,76,99,0.67
AU,{'new norfolk'},-42.7826,147.0587,49.5,49.91,68,27,10.63
US,{'barrow'},71.2906,-156.7887,37.42,37.42,87,90,16.11
ID,{'bengkulu'},-3.8004,102.2655,73.98,73.98,90,71,4.16
OM,{'salalah'},17.0151,54.0924,77.09,77.09,88,75,4.61
RE,{'saint-philippe'},-21.3585,55.7679,69.28,71.19,85,51,9.31
BR,{'maceio'},-9.6658,-35.7353,72.84,72.84,100,90,3.44
NZ,{'te anau'},-45.4167,167.7167,51.01,51.01,91,100,7.67
CN,{'dingzhou'},38.5131,114.9956,73.51,73.51,93,100,2.08
RU,{'chernyakhovsk'},54.6335,21.8156,54.5,54.5,96,4,7.05
PG,{'samarai'},-10.6167,150.6667,78.94,78.94,86,94,12.17
NE,{'arlit'},18.7369,7.3853,99.36,99.36,17,48,10.22
MR,{'adrar'},20.5022,-10.0711,91.22,91.22,18,12,9.84
ZA,{'whittlesea'},-32.1759,26.8244,47.79,47.79,50,11,5.82
ZA,{'port alfred'},-33.5906,26.891,58.06,58.06,78,42,16.91
RU,{'nikolskoye'},59.7035,30.7861,55.29,59.02,68,97,3.91
CN,{'mujiayingzi'},42.1167,118.7833,61.02,61.02,87,37,0.76
MU,{'souillac'},-20.5167,57.5167,70.18,71.37,88,40,9.22
CA,{'tuktoyaktuk'},69.4541,-133.0374,62.6,62.6,63,75,16.11
MY,{'georgetown'},5.4112,100.3354,77.9,78.73,91,20,0.0
ID,{'japura'},-0.3167,102.35,73.06,73.06,92,97,2.55
GL,{'tasiilaq'},65.6145,-37.6368,51.96,51.96,83,60,7.18
AU,{'carnarvon'},-24.8667,113.6333,46.47,46.47,44,0,12.66
CL,{'ancud'},-41.8697,-73.8203,45.93,45.93,82,0,2.91
US,{'jamestown'},42.097,-79.2353,76.84,78.39,76,90,4.0
RU,{'aykhal'},66.0,111.5,59.9,59.9,55,100,7.56
ID,{'biak'},-0.9131,122.8766,76.96,76.96,83,61,6.67
AU,{'innisfail'},-17.5333,146.0333,70.21,70.21,89,97,9.22
PH,{'dingle'},10.9995,122.6711,77.99,77.99,85,100,3.85
AU,{'moree'},-29.4667,149.85,62.62,62.62,72,68,18.41
PE,{'pimentel'},-6.8367,-79.9342,66.0,68.29,80,0,5.99
IN,{'saiha'},22.4833,92.9667,72.21,72.21,98,100,1.63
CA,{'iqaluit'},63.7506,-68.5145,42.53,42.53,81,75,18.41
CI,{'mankono'},8.0586,-6.1897,71.06,71.06,97,94,4.63
PK,{'harnoli'},32.2792,71.5539,94.26,94.26,35,0,11.48
TO,{'vaini'},-21.2,-175.2,66.36,66.36,94,90,6.91
BR,{'urucara'},-2.5364,-57.76,84.02,84.02,47,23,2.53
LK,{'hambantota'},6.1241,81.1185,78.33,78.33,82,100,19.46
RU,{'solnechnyy'},50.7214,136.6319,65.25,65.25,57,28,2.77
SJ,{'longyearbyen'},78.2186,15.6401,46.24,46.24,93,75,0.0
CN,{'shache'},38.4167,77.2406,74.98,74.98,34,11,8.84
US,{'porterville'},36.0652,-119.0168,98.28,104.52,21,1,5.75
AU,{'gawler'},-34.6,138.7333,50.7,54.91,97,76,5.97
SD,{'kutum'},14.2,24.6667,73.42,73.42,65,68,6.53
RU,{'saskylakh'},71.9167,114.0833,50.68,50.68,75,100,9.06
BO,{'trinidad'},-14.8333,-64.9,71.58,71.58,56,7,3.44
RU,{'ostrovnoy'},68.0531,39.5131,56.84,56.84,86,41,10.94
MX,{'pochutla'},15.7432,-96.4661,87.62,87.62,60,28,5.79
KI,{'butaritari'},3.0707,172.7902,83.26,83.26,66,7,12.24
MX,{'loreto'},22.2667,-101.9667,77.63,77.63,29,27,16.49
LY,{'jalu'},29.0331,21.5482,86.85,86.85,45,0,6.96
IN,{'madras'},13.0878,80.2785,84.18,84.18,74,40,11.5
NP,{'jumla'},29.2747,82.1838,61.83,61.83,93,76,0.92
BR,{'cabedelo'},-6.9811,-34.8339,74.07,74.07,87,9,10.67
ZA,{'bredasdorp'},-34.5322,20.0403,51.12,51.12,87,63,14.97
MZ,{'montepuez'},-13.1256,38.9997,62.26,62.26,74,0,4.09
LY,{'ajdabiya'},30.7554,20.2263,81.28,81.28,76,0,11.39
BR,{'trairi'},-3.2778,-39.2689,79.3,79.3,83,2,12.86
OM,{'sur'},22.5667,59.5289,89.19,89.19,53,16,8.95
RU,{'kayerkan'},69.3497,87.7602,41.14,41.14,96,100,7.31
SY,{'abu kamal'},34.4506,40.9171,89.6,89.6,27,47,6.46
NU,{'alofi'},-19.0595,-169.9187,76.89,76.89,78,75,18.41
RU,{'khatanga'},71.9667,102.5,46.45,46.45,79,100,15.55
BR,{'arraial do cabo'},-22.9661,-42.0278,69.76,69.76,83,20,9.22
RU,{'seymchan'},62.8833,152.4333,72.99,72.99,42,53,3.22
JP,{'fukue'},32.6881,128.8419,80.96,80.96,94,75,11.5
HN,{'savannah bight'},16.45,-85.85,84.25,86.0,73,22,17.65
PF,{'atuona'},-9.8,-139.0333,77.74,77.74,68,31,18.66
PG,{'lorengau'},-2.0226,147.2712,85.28,85.28,63,96,9.1
RU,{'severo-kurilsk'},50.6789,156.125,56.26,56.26,71,100,8.08
BO,{'potosi'},-19.5836,-65.7531,48.79,48.79,44,51,6.04
PW,{'kloulklubed'},7.0419,134.2556,82.9,82.9,73,99,8.7
BR,{'coromandel'},-18.4733,-47.2003,69.98,69.98,33,13,1.32
US,{'san patricio'},28.017,-97.5169,89.67,93.92,54,3,15.26
ZA,{'kruisfontein'},-34.0033,24.7314,48.88,48.88,74,39,14.79
DE,{'nauen'},52.607,12.8737,58.23,62.17,78,23,1.81
CA,{'torbay'},47.6666,-52.7314,66.27,66.27,97,98,10.13
AU,{'hobart'},-42.8794,147.3294,50.04,50.25,58,20,1.01
RU,{'provideniya'},64.3833,-173.3,41.11,41.11,75,90,8.95
PF,{'faanui'},-16.4833,-151.75,78.78,78.78,72,19,13.98
DZ,{'tigzirt'},36.8886,4.1198,88.88,88.88,29,1,10.6
SB,{'honiara'},-9.4333,159.95,78.94,78.94,82,100,9.71
AU,{'ballina'},-28.8667,153.5667,66.78,66.78,68,2,7.02
MV,{'kulhudhuffushi'},6.6221,73.07,82.31,82.31,75,100,14.63
US,{'duarte'},34.1394,-117.9773,89.87,107.64,28,1,1.01
AU,{'mount isa'},-20.7333,139.5,67.77,67.77,26,0,17.27
JP,{'shimoda'},34.6667,138.95,77.36,77.36,88,100,10.13
AU,{'palmerston'},-12.486,130.9833,78.76,79.93,86,20,4.61
CG,{'djambala'},-2.5447,14.7533,72.81,72.81,63,84,4.43
NA,{'walvis bay'},-22.9575,14.5053,49.15,54.09,93,9,3.44
RU,{'yeniseysk'},58.4497,92.1703,59.02,59.02,82,99,1.63
RU,{'kachug'},53.9606,105.8817,58.62,58.62,71,0,2.37
CD,{'boende'},-0.2167,20.8667,73.85,73.85,80,80,2.01
AR,{'rio gallegos'},-51.6226,-69.2181,48.25,48.25,57,0,14.97
EC,{'puerto ayora'},-0.7393,-90.3518,70.56,70.56,83,44,7.0
RU,{'chokurdakh'},70.6333,147.9167,62.26,62.26,59,100,7.34
PG,{'kavieng'},-2.5744,150.7967,83.98,83.98,68,25,5.55
GL,{'nanortalik'},60.1432,-45.2371,46.51,46.51,78,9,8.95
PH,{'catuday'},16.2923,119.8062,75.97,75.97,87,100,4.36
PK,{'chitral'},35.8462,71.7858,74.88,74.88,63,0,1.97
AU,{'esperance'},-33.8667,121.9,51.66,51.66,81,65,12.08
PT,{'lagoa'},39.05,-27.9833,71.98,71.98,85,8,17.85
US,{'saint george'},37.1041,-113.5841,99.97,104.47,22,1,1.99
RU,{'yekaterinovka'},52.0508,44.3451,74.93,74.93,45,13,16.93
US,{'lompoc'},34.6391,-120.4579,71.37,93.02,74,1,11.5
RU,{'kazachinskoye'},57.6953,93.2761,61.92,61.92,78,100,2.28
RU,{'terney'},45.0503,136.6092,62.44,62.44,58,80,0.2
CY,{'pafos'},34.7667,32.4167,79.7,82.18,36,0,3.44
BR,{'salinopolis'},-0.6136,-47.3561,80.04,80.04,83,97,12.62
ES,{'la rioja'},42.25,-2.5,71.38,71.38,68,100,6.2
UZ,{'komsomolskiy'},40.4272,71.7189,74.12,76.42,46,2,4.61
FI,{'lieto'},60.5103,22.4618,51.67,60.71,96,0,1.14
US,{'nome'},64.5011,-165.4064,50.07,51.17,57,90,4.61
MX,{'cocorit'},27.5833,-109.9667,91.74,91.74,43,60,14.74
GA,{'port-gentil'},-0.7193,8.7815,76.68,76.68,80,75,13.53
US,{'greenwood'},34.1668,-82.1165,74.73,83.48,94,75,8.05
AR,{'necochea'},-38.5473,-58.7368,44.04,44.04,77,31,5.79
LY,{'awjilah'},29.1081,21.2869,86.56,86.56,46,0,10.42
CA,{'chapais'},49.7834,-74.8492,67.78,67.78,70,100,10.83
ID,{'tondano'},1.3038,124.9112,69.89,69.89,80,50,2.75
AU,{'port lincoln'},-34.7333,135.8667,55.17,55.17,78,5,8.75
ZA,{'saldanha'},-33.0117,17.9442,53.65,53.65,82,62,24.61
BR,{'alto araguaia'},-17.3147,-53.2153,72.41,72.41,34,23,5.41
KI,{'bairiki'},1.3292,172.9752,87.8,87.8,62,20,10.36
BO,{'uyuni'},-20.4597,-66.825,48.22,48.22,25,1,7.31
RU,{'poronaysk'},49.2167,143.1167,56.66,56.66,82,82,1.83
FR,{'hauterive'},46.0901,3.4459,68.36,70.56,82,0,1.79
NZ,{'ngunguru'},-35.6167,174.5,59.16,59.16,66,33,6.04
KE,{'malindi'},-3.2175,40.1191,73.92,73.92,82,38,12.1
AR,{'rafaela'},-31.2503,-61.4867,50.99,50.99,39,0,7.45
US,{'kodiak'},57.79,-152.4072,56.71,56.71,88,90,6.91
MZ,{'inhambane'},-23.865,35.3833,65.41,65.41,86,57,10.31
SS,{'waw'},7.7029,27.9953,70.68,70.68,98,100,1.66
BR,{'pitimbu'},-7.4706,-34.8086,73.99,73.99,87,19,9.69
CF,{'birao'},10.2849,22.7882,72.57,72.57,93,85,2.66
RU,{'zyryanka'},65.75,150.85,71.78,71.78,37,79,2.77
CN,{'aksu'},41.1231,80.2644,76.33,76.33,40,45,5.39
UG,{'bushenyi'},-0.5853,30.2114,60.26,60.26,89,48,0.54
RU,{'sosva'},59.1766,61.8558,47.93,47.93,85,50,2.77
RU,{'askiz'},53.1319,90.5264,56.75,56.75,85,12,4.7
US,{'half moon bay'},37.4636,-122.4286,74.61,96.75,66,1,13.8
MU,{'bambous virieux'},-20.3428,57.7575,70.05,71.22,88,40,9.22
CO,{'uribia'},11.7139,-72.266,86.5,86.5,63,93,11.9
GR,{'methoni'},36.8197,21.7049,71.46,82.22,66,1,3.44
VG,{'road town'},18.4167,-64.6167,82.47,83.19,94,75,9.22
MR,{'nouakchott'},18.0858,-15.9785,80.53,80.53,69,14,22.12
RU,{'sovetskiy'},61.3614,63.5842,52.56,52.56,77,44,0.63
US,{'nantucket'},41.2835,-70.0995,74.35,78.96,95,90,13.8
SS,{'wau'},7.7029,27.9953,70.68,70.68,98,100,1.66
JP,{'kadoma'},34.7333,135.5833,76.98,76.98,81,100,1.14
CA,{'thompson'},55.7435,-97.8558,47.82,47.82,83,100,17.78
US,{'sunland park'},31.7965,-106.58,88.03,92.68,37,75,1.99
VU,{'isangel'},-19.55,169.2667,77.11,77.11,53,40,11.5
CN,{'puqi'},29.7167,113.8833,78.28,78.28,95,98,1.39
PG,{'port moresby'},-9.4431,147.1797,79.16,79.16,75,17,2.37
BR,{'imbituba'},-28.24,-48.6703,55.29,55.29,74,94,10.2
SA,{'faya'},18.3851,42.4509,66.72,69.91,59,87,2.71
CL,{'iquique'},-20.2208,-70.1431,59.04,59.04,75,47,2.89
ID,{'bambanglipuro'},-7.95,110.2833,72.12,72.12,91,18,4.07
BR,{'itarema'},-2.9248,-39.9167,79.5,79.5,82,1,18.05
CM,{'kribi'},2.95,9.9167,75.47,75.47,89,51,7.49
ES,{'el prat de llobregat'},41.3278,2.0947,80.24,85.96,53,0,5.75
SA,{'najran'},17.4924,44.1277,84.85,84.85,28,75,7.36
ML,{'tessalit'},20.1986,1.0114,96.19,96.19,11,50,7.47
NO,{'terrak'},65.087,12.3715,55.27,55.27,96,100,2.86
PF,{'tautira'},-17.7333,-149.15,80.62,80.62,83,71,14.32
CN,{'xichang'},27.8964,102.2634,66.96,66.96,93,100,1.32
GL,{'upernavik'},72.7868,-56.1549,42.67,42.67,86,98,20.13
US,{'houma'},29.5958,-90.7195,77.92,85.98,89,90,0.0
IT,{'vittoria'},36.9537,14.5332,88.81,94.28,25,6,5.75
CA,{'shaunavon'},49.6501,-108.4181,73.18,73.18,34,70,20.71
KZ,{'atbasar'},51.8,68.3333,54.99,54.99,87,100,9.93
BR,{'manaus'},-3.1019,-60.025,79.29,82.9,83,75,3.44
BR,{'sao jose da coroa grande'},-8.8978,-35.1478,74.75,74.75,87,56,8.9
US,{'north platte'},41.1239,-100.7654,91.29,91.29,29,1,10.36
RU,{'dikson'},73.5069,80.5464,42.44,42.44,87,100,12.35
MU,{'grand gaube'},-20.0064,57.6608,71.38,71.38,83,3,5.99
DO,{'la romana'},18.4273,-68.9728,80.96,80.96,89,90,0.0
BR,{'caravelas'},-17.7125,-39.2481,69.58,69.58,88,7,5.35
US,{'sitka'},57.0531,-135.33,58.89,58.89,82,75,9.22
MY,{'labuan'},5.2767,115.2417,80.96,80.96,83,20,4.61
MV,{'kudahuvadhoo'},2.6708,72.8944,82.09,82.09,73,99,13.4
CL,{'coquimbo'},-29.9533,-71.3436,53.33,53.33,82,90,5.75
BR,{'tucuma'},-0.1833,-50.05,75.79,75.79,91,75,6.24
VN,{'tuy hoa'},13.0833,109.3,78.4,78.4,84,100,5.21
GB,{'boddam'},57.4667,-1.7833,56.44,57.58,92,76,11.3
ES,{'san javier'},37.8063,-0.8374,80.49,84.24,69,0,1.14
JP,{'nishihara'},26.1842,127.7558,82.9,83.86,87,75,16.11
KE,{'lodwar'},3.1191,35.5973,83.1,83.1,47,47,11.1
RU,{'yantal'},56.8471,105.2542,59.76,59.76,64,28,2.62
NZ,{'otane'},-39.8833,176.6333,53.01,58.39,71,0,2.84
US,{'bethel'},41.3712,-73.414,81.95,85.46,83,96,6.69
RU,{'sobolevo'},54.4299,31.8996,58.5,58.5,93,17,5.44
US,{'bud'},39.447,-86.1758,86.92,89.58,68,92,14.29
RU,{'beringovskiy'},63.05,179.3167,45.84,45.84,81,82,10.09
NO,{'varhaug'},58.6147,5.6457,57.31,59.9,77,100,5.68
NC,{'vao'},-22.6667,167.4833,67.96,67.96,55,6,22.46
GB,{'margate'},51.3813,1.3862,59.23,61.7,79,100,1.99
RU,{'vidim'},56.4088,103.1106,58.62,58.62,63,84,3.02
NZ,{'kaitangata'},-46.2817,169.8464,50.92,50.92,78,100,4.52
RU,{'cherskiy'},68.75,161.3,61.63,61.63,43,80,6.87
PH,{'marawi'},7.9986,124.2928,69.66,69.66,89,90,1.05
LK,{'kalmunai'},7.4167,81.8167,77.74,77.74,82,100,6.64
CN,{'manzhouli'},49.6,117.4333,57.22,57.22,86,100,7.52
LR,{'harper'},4.375,-7.7169,77.95,77.95,78,95,10.92
VN,{'bac lieu'},9.285,105.7244,81.39,81.39,82,100,7.99
PH,{'puro'},12.4841,123.3827,80.96,80.96,80,99,1.57
BR,{'aripuana'},-9.1667,-60.6333,82.09,82.09,35,5,1.21
BR,{'vila velha'},-20.3297,-40.2925,71.55,71.55,88,0,4.61
PK,{'gwadar'},25.1216,62.3254,78.82,78.82,82,75,5.61
NZ,{'tuatapere'},-46.1333,167.6833,58.82,58.82,80,100,7.52
RU,{'tiksi'},71.6872,128.8694,58.73,58.73,68,60,10.18
AR,{'azul'},-36.777,-59.8585,40.53,40.53,83,3,9.13
US,{'huron'},41.1501,-82.5499,71.74,72.84,83,100,15.55
CA,{'norman wells'},65.282,-126.8329,62.64,62.64,59,75,10.36
ID,{'sampit'},-2.5333,112.95,74.25,74.25,98,87,1.19
NA,{'henties bay'},-22.116,14.2845,53.85,53.85,90,51,5.53
HT,{'les cayes'},18.2,-73.75,83.8,83.8,71,66,8.39
NO,{'raudeberg'},61.9875,5.1352,57.9,60.19,86,50,10.27
LT,{'utena'},55.5,25.6,55.26,55.26,97,93,5.97
US,{'bloomsburg'},41.0037,-76.4549,73.99,84.11,90,98,1.01
BR,{'aquiraz'},-3.9014,-38.3911,80.69,80.69,83,11,12.62
IN,{'tura'},25.5198,90.2201,75.06,75.06,99,100,6.6
MX,{'acapulco'},16.8634,-99.8901,85.82,85.82,70,20,8.05
CA,{'aklavik'},68.2191,-135.0107,64.4,66.92,59,90,9.22
TC,{'cockburn town'},21.4612,-71.1419,82.98,82.98,75,9,21.9
RU,{'toora-khem'},52.4675,96.11,56.89,56.89,96,100,1.88
BR,{'maragogi'},-9.0122,-35.2225,74.37,74.37,88,61,8.77
GB,{'lerwick'},60.1545,-1.1494,57.2,57.2,95,100,12.82
IS,{'grindavik'},63.8424,-22.4338,53.94,54.07,82,75,4.61
CN,{'helong'},42.5397,128.9972,61.88,61.88,96,100,2.71
GF,{'cayenne'},4.9333,-52.3333,79.09,79.09,85,0,3.44
KZ,{'derzhavinsk'},51.1,66.3167,55.89,55.89,84,66,12.06
US,{'indiana'},40.0003,-86.2503,86.68,88.81,67,1,12.66
SO,{'hobyo'},5.3505,48.5268,76.14,76.14,87,78,21.79
BR,{'uruacu'},-14.5247,-49.1408,79.65,79.65,27,5,2.89
US,{'williamsburg'},37.2707,-76.7075,88.7,92.75,76,40,3.44
ES,{'los llanos de aridane'},28.6585,-17.9182,65.12,69.55,91,0,13.8
ES,{'muros'},42.7762,-9.0603,65.91,68.99,85,3,7.43
CO,{'otanche'},5.6567,-74.1825,68.45,68.45,94,97,2.42
SA,{'sakakah'},29.9697,40.2064,90.97,90.97,23,0,9.33
IN,{'jagdalpur'},19.0667,82.0333,73.17,73.17,89,100,2.8
RU,{'bilibino'},68.0546,166.4372,58.01,58.01,42,83,3.06
GR,{'mouzouras'},35.5333,24.15,80.6,80.6,74,0,5.75
CA,{'prince rupert'},54.3161,-130.3201,57.69,62.29,88,0,14.97
PG,{'kieta'},-6.2167,155.6333,78.06,78.06,91,99,9.57
RU,{'aksha'},50.2814,113.2867,57.76,57.76,96,100,2.62
US,{'pahrump'},36.2083,-115.9839,100.45,103.1,22,11,4.0
IT,{'subiaco'},41.9254,13.0941,75.06,79.41,62,15,4.63
NO,{'roald'},62.5833,6.1333,58.93,61.32,94,90,5.75
JP,{'ishigaki'},24.3448,124.1572,82.53,82.53,94,75,8.05
BW,{'sekoma'},-24.4,23.8833,59.38,59.38,38,36,13.27
PT,{'ponta delgada'},37.7333,-25.6667,72.32,72.32,88,20,6.91
IN,{'puri'},19.8,85.85,82.92,82.92,76,100,8.75
NC,{'poum'},-20.2333,164.0167,71.08,71.08,60,8,23.15
ZW,{'zvishavane'},-20.3267,30.0665,54.54,54.54,66,0,1.7
BR,{'cidreira'},-30.1811,-50.2056,50.43,50.43,68,48,7.9
CL,{'antofagasta'},-23.65,-70.4,56.48,56.48,80,95,3.4
US,{'sheridan'},44.8333,-106.9173,91.08,92.01,23,1,1.01
IL,{'gat'},31.61,34.7642,75.79,81.28,100,0,1.95
JP,{'hirara'},24.8,125.2833,80.87,80.87,89,75,13.8
ID,{'ternate'},0.8,127.4,80.49,80.49,77,57,3.4
CN,{'chengde'},40.9725,117.9361,65.98,65.98,91,3,1.5
RU,{'tyazhinskiy'},56.116,88.524,56.91,56.91,97,95,5.68
CA,{'pangnirtung'},66.1451,-65.7125,49.26,49.26,77,80,7.99
CU,{'santa cruz del sur'},20.7147,-77.9956,87.21,87.21,59,50,15.75
CN,{'fengzhen'},40.4394,113.1536,65.23,65.23,52,43,4.45
CN,{'beidao'},34.5686,105.8933,64.94,64.94,73,98,1.86
BR,{'caiaponia'},-16.9567,-51.8103,73.63,73.63,27,9,5.59
CO,{'la macarena'},2.1837,-73.7849,74.59,74.59,96,42,1.54
ID,{'barabai'},-2.5833,115.3833,74.55,74.55,90,95,1.05
IN,{'manvi'},15.9833,77.05,78.89,78.89,70,99,11.9
US,{'pascagoula'},30.3658,-88.5561,85.57,87.84,75,20,6.91
KZ,{'ekibastuz'},51.6667,75.3667,58.24,58.24,84,56,6.85
CO,{'manaure'},11.7751,-72.4445,84.0,84.0,73,90,15.21
NE,{'dakoro'},14.5106,6.765,77.5,77.5,67,93,10.49
ZA,{'aliwal north'},-30.6937,26.7114,50.67,50.67,51,64,9.37
BD,{'madaripur'},23.1753,90.2072,80.82,80.82,88,100,10.2
BR,{'sao joao da barra'},-21.6403,-41.0511,70.5,70.5,78,5,20.56
TD,{'kyabe'},9.4515,18.9449,72.36,72.36,96,100,3.38
CA,{'mackenzie'},55.2999,-123.1698,71.82,71.82,33,1,8.05
NA,{'luderitz'},-26.6481,15.1594,55.45,55.45,81,73,8.3
RU,{'kyshtovka'},56.555,76.6271,53.56,53.56,75,100,14.03
CN,{'zhuhai'},22.2769,113.5678,80.82,83.71,94,20,1.14
ID,{'ruteng'},-8.6136,120.4721,63.73,63.73,89,42,2.46
CO,{'puerto narino'},-3.7703,-70.3831,82.35,82.35,66,100,1.83
BR,{'penha'},-26.7694,-48.6458,58.55,58.87,77,75,9.22
CV,{'sao filipe'},14.8961,-24.4956,75.38,75.38,80,32,11.25
NE,{'agadez'},19.75,10.25,88.45,88.45,33,27,8.14
CN,{'linxia'},35.6003,103.2064,60.15,60.15,62,88,3.24
RU,{'muyezerskiy'},63.9333,31.65,55.18,55.18,76,39,2.42
IS,{'olafsvik'},64.8945,-23.7142,56.73,56.73,73,25,3.24
US,{'hamilton'},39.1834,-84.5333,89.6,91.58,63,20,4.0
SO,{'xuddur'},4.1213,43.8894,70.27,70.27,70,42,18.81
CL,{'constitucion'},-35.3333,-72.4167,48.78,48.78,72,0,4.07
LB,{'beirut'},33.8889,35.4944,80.98,81.34,78,0,2.3
SY,{'abu samrah'},35.3029,37.1841,80.65,80.65,46,16,6.11
IN,{'port blair'},11.6667,92.75,81.61,81.61,80,100,10.11
BR,{'touros'},-5.1989,-35.4608,74.3,74.3,84,9,11.99
PE,{'hualmay'},-11.0964,-77.6139,63.88,63.88,77,66,10.94
SN,{'mbour'},14.422,-16.9638,79.65,80.69,77,56,13.38
CN,{'lianyuan'},27.6883,111.6642,78.76,78.76,95,100,0.6
TL,{'airai'},-8.9266,125.4092,61.84,61.84,70,30,3.6
RU,{'krasnoselkup'},65.7,82.4667,43.48,43.48,87,41,11.12
AR,{'puerto madryn'},-42.7692,-65.0385,48.06,48.06,70,0,20.94
DE,{'rotenburg'},53.1167,9.4,57.7,60.62,86,6,3.8
PF,{'fare'},-16.7,-151.0167,78.53,78.53,73,6,12.35
ZA,{'danielskuil'},-28.1887,23.5395,47.39,47.39,46,0,9.57
RU,{'yerofey pavlovich'},53.9667,121.9667,60.1,60.1,72,26,0.16
US,{'palmer'},42.1584,-72.3287,83.44,86.5,70,51,5.01
GL,{'narsaq'},60.9167,-46.05,53.82,53.82,74,12,0.87
AU,{'kununurra'},-15.7667,128.7333,76.98,76.98,31,33,5.75
US,{'ewa beach'},21.3156,-158.0072,88.77,89.55,53,75,10.36
SA,{'buraydah'},26.326,43.975,88.25,88.25,12,84,8.75
IT,{'lipari'},38.4674,14.954,82.29,85.23,81,8,6.73
CA,{'hay river'},60.8156,-115.7999,58.98,58.98,58,75,1.14
AO,{'namibe'},-15.1961,12.1522,62.92,62.92,86,36,10.71
GL,{'qaqortoq'},60.7167,-46.0333,54.1,54.1,77,14,0.54
VN,{'quang ngai'},15.1167,108.8,77.85,77.85,83,100,4.9
RO,{'asau'},46.4333,26.4,60.15,65.75,94,27,2.86
US,{'portland'},45.5234,-122.6762,100.09,104.7,32,20,3.0
US,{'pierre'},44.3683,-100.351,94.12,94.12,21,40,11.5
PT,{'ponta do sol'},32.6667,-17.1,70.2,74.03,76,5,4.38
PT,{'barcelos'},41.5388,-8.6151,66.25,74.28,88,1,1.45
BR,{'coxim'},-18.5067,-54.76,76.89,76.89,42,27,8.01
CA,{'fort nelson'},58.8053,-122.7002,71.65,71.65,33,50,9.53
RU,{'srednekolymsk'},67.45,153.6833,66.06,66.06,33,82,2.01
NZ,{'ahipara'},-35.1667,173.1667,57.49,57.49,63,19,6.08
PT,{'lata'},40.1629,-8.3327,62.15,68.04,95,15,2.68
RU,{'kalevala'},65.2,31.1667,55.54,55.54,82,54,3.0
CI,{'san-pedro'},4.7485,-6.6363,76.86,76.86,83,98,7.52
GA,{'lastoursville'},-0.8143,12.7287,74.77,74.77,84,99,2.13
AR,{'viedma'},-40.8135,-62.9967,42.01,42.01,60,1,2.51
CR,{'limon'},10.0,-83.0333,80.49,80.49,83,75,8.05
IN,{'mandal'},25.45,74.5667,76.01,76.01,73,94,8.63
US,{'big rapids'},43.6981,-85.4837,80.31,82.6,75,49,16.91
PT,{'praia da vitoria'},38.7333,-27.0667,71.85,73.76,83,20,11.81
CN,{'nenjiang'},49.1833,125.2167,59.95,59.95,86,5,7.11
CA,{'port-cartier'},50.0334,-66.8654,68.81,68.94,91,75,6.35
NE,{'bilma'},18.6853,12.9164,90.88,90.88,42,67,6.76
PT,{'vila franca do campo'},37.7167,-25.4333,72.01,72.01,89,7,5.35
US,{'avera'},33.194,-82.5271,82.2,87.71,53,78,3.89
NZ,{'hokitika'},-42.7167,170.9667,52.81,52.81,85,100,5.06
ET,{'mizan teferi'},6.9833,35.5833,58.59,58.59,96,48,2.21
CA,{'saint-augustin'},51.226,-58.6502,57.09,57.09,73,100,12.68
AF,{'gardez'},33.5974,69.2259,65.95,65.95,69,0,4.79
RU,{'tommot'},58.9564,126.2925,66.69,66.69,64,47,1.92
CL,{'coihaique'},-45.5752,-72.0662,36.93,36.93,84,0,3.8
US,{'cloquet'},46.7216,-92.4594,78.78,81.37,31,1,12.66
BJ,{'bembereke'},10.2283,2.6634,70.27,70.27,96,97,3.56
VN,{'yen bai'},21.7,104.8667,77.88,77.88,95,96,1.43
JP,{'nemuro'},43.3236,145.575,58.1,58.1,73,3,4.14
RU,{'yar-sale'},66.8333,70.8333,52.12,52.12,71,60,8.1
CO,{'miranda'},3.2499,-76.2281,78.93,78.93,80,54,3.4
US,{'westport'},41.1415,-73.3579,82.36,87.57,85,1,1.01
UY,{'rocha'},-34.4833,-54.3333,41.81,41.81,91,1,4.05
PL,{'kutno'},52.2306,19.3641,57.02,58.1,78,29,7.38
BR,{'manicore'},-5.8092,-61.3003,80.55,80.55,78,0,0.0
RU,{'petropavlovsk-kamchatskiy'},53.0452,158.6483,57.79,57.79,77,0,4.47
US,{'havelock'},34.8791,-76.9013,83.57,87.06,81,1,7.0
VU,{'sola'},-13.8833,167.55,77.67,77.67,83,75,11.5
CL,{'diego de almagro'},-26.3667,-70.05,56.07,56.07,52,26,4.38
BR,{'palmas'},-10.2128,-48.3603,80.47,80.47,50,0,3.44
US,{'nanakuli'},21.3906,-158.1547,88.5,89.55,56,75,10.36
KR,{'seoul'},37.5683,126.9778,75.78,76.51,72,99,3.2
SB,{'auki'},-8.7676,160.7034,76.82,76.82,89,100,3.42
US,{'mission viejo'},33.6,-117.672,85.96,101.75,55,52,3.0
RU,{'turtas'},58.9417,69.1325,47.14,47.14,85,1,6.11
CN,{'alihe'},50.5667,123.7167,59.68,59.68,88,49,2.17
FR,{'chaumont'},48.1167,5.1333,62.89,62.89,85,86,3.74
RU,{'zenzeli'},45.9241,47.0474,79.57,79.57,62,62,7.36
US,{'fairview'},40.8126,-73.999,86.13,91.56,70,20,4.61
AI,{'the valley'},18.217,-63.0578,82.83,84.06,83,20,11.5
BR,{'carutapera'},-1.195,-46.02,77.25,77.25,92,81,5.91
CA,{'halifax'},44.6453,-63.5724,69.82,72.41,94,90,3.0
RU,{'mukhtolovo'},55.4644,43.1953,73.94,73.94,52,100,11.95
CD,{'lodja'},-3.4833,23.4333,76.66,76.66,59,98,3.22
NO,{'havoysund'},70.9963,24.6622,52.68,52.68,98,100,18.77
CV,{'praia'},14.9215,-23.5087,77.54,77.54,73,75,12.66
GQ,{'bata'},1.8639,9.7658,76.84,76.84,84,81,8.12
BR,{'gilbues'},-9.8317,-45.3439,79.36,79.36,32,12,3.94
BR,{'belmonte'},-15.8631,-38.8828,73.9,73.9,84,2,5.7
US,{'kenai'},60.5544,-151.2583,58.19,59.05,65,90,9.22
CR,{'parrita'},9.5201,-84.3225,82.22,85.26,87,81,5.64
NA,{'oranjemund'},-28.55,16.4333,55.9,55.9,76,100,6.8
ID,{'pemangkat'},1.1667,108.9667,77.94,77.94,84,100,3.38
AU,{'geraldton'},-28.7667,114.6,43.21,43.21,93,0,9.22
CA,{'la ronge'},55.1001,-105.2842,59.25,59.25,47,75,23.02
AF,{'farah'},32.5,62.5,78.21,78.21,14,0,2.75
CA,{'souris'},49.6172,-100.2612,73.26,77.74,58,85,11.59
RU,{'zavodoukovsk'},56.5042,66.5515,46.89,46.89,91,1,8.52
CN,{'urumqi'},43.801,87.6005,72.55,72.55,35,0,6.71
RU,{'tazovskiy'},67.4667,78.7,41.11,41.11,86,5,7.25
GT,{'champerico'},14.3,-91.9167,88.21,88.34,73,99,6.33
CV,{'pombas'},17.1503,-25.0201,74.98,74.98,77,71,10.4
FI,{'kemijarvi'},66.7131,27.4306,53.08,53.08,97,30,5.82
AU,{'mount gambier'},-37.8333,140.7667,49.91,49.91,100,75,8.05
ID,{'tual'},-5.6667,132.75,80.08,80.08,81,44,20.54
BR,{'jacareacanga'},-6.2222,-57.7528,85.48,85.48,35,49,2.28
RU,{'kuytun'},54.3419,101.5036,57.24,57.24,78,21,3.31
RU,{'vuktyl'},63.8567,57.3094,52.72,52.72,78,87,6.62
US,{'makakilo city'},21.3469,-158.0858,87.39,88.12,54,75,10.36
MX,{'guerrero negro'},27.9769,-114.0611,86.9,86.9,47,18,15.08
GF,{'iracoubo'},5.4802,-53.2011,77.7,77.7,87,100,8.72
CM,{'nkoteng'},4.5167,12.0333,68.02,68.02,96,95,5.73
BR,{'terra roxa'},-23.8557,-50.0314,59.68,59.68,82,65,9.95
RU,{'kyren'},51.6828,102.1408,61.52,61.52,81,96,1.88
PE,{'pisco'},-13.7,-76.2167,62.65,63.01,77,75,10.36
US,{'mount pleasant'},32.7941,-79.8626,85.46,88.05,77,1,1.01
FR,{'paris'},48.8534,2.3488,66.36,69.15,78,0,3.44
ID,{'kupang'},-10.1667,123.5833,79.38,79.38,83,20,10.36
KZ,{'kushmurun'},52.4503,64.6311,58.6,58.6,72,84,14.05
KE,{'witu'},-2.3889,40.4382,75.36,75.36,83,29,11.39
TR,{'kula'},38.5473,28.6498,69.15,69.15,52,3,3.98
SE,{'vanersborg'},58.3807,12.3234,54.12,59.74,94,13,6.91
IS,{'hofn'},64.2539,-15.2082,52.27,52.27,89,67,11.9
MY,{'kuala terengganu'},5.3302,103.1408,76.95,76.95,94,20,0.0
US,{'collierville'},35.042,-89.6645,93.13,94.78,52,40,11.5
MG,{'ambatolampy'},-19.3833,47.4167,44.37,44.37,96,15,0.81
PE,{'huarmey'},-10.0681,-78.1522,65.12,65.12,76,51,9.06
ID,{'sorong'},-0.8833,131.25,78.69,78.69,85,74,5.35
BR,{'petrolina de goias'},-16.095,-49.3381,74.5,75.36,28,14,5.19
IN,{'bhinmal'},25.0,72.25,80.76,80.76,71,55,14.2
MA,{'marrakesh'},31.6315,-8.0083,77.07,77.07,65,0,6.91
CM,{'mfou'},3.7159,11.6427,66.6,66.6,97,98,4.83
MX,{'tulum'},20.2167,-87.4667,85.41,86.05,73,100,6.11
AU,{'inverell'},-29.7833,151.1167,56.1,56.1,92,87,4.0
PK,{'gujar khan'},33.2558,73.3026,83.62,83.62,60,15,7.49
AU,{'bowen'},-20.0167,148.2333,70.11,70.11,74,10,14.54
CN,{'tongren'},27.7172,109.1853,76.33,76.33,99,100,0.22
GB,{'brae'},60.3964,-1.353,57.11,57.11,95,100,14.05
CN,{'yichang'},30.7144,111.2847,77.85,77.85,92,100,0.58
CA,{'ucluelet'},48.9329,-125.5528,97.05,97.05,72,59,2.86
RU,{'belyy yar'},53.6039,91.3903,55.29,55.29,94,0,2.24
AU,{'yulara'},-25.2406,130.9889,49.84,49.84,43,0,11.5
CA,{'campbellton'},48.0075,-66.6727,72.05,72.05,85,57,2.64
RU,{'ust-tsilma'},65.441,52.1498,59.68,59.68,71,100,4.88
ID,{'pangkalanbuun'},-2.6833,111.6167,73.67,73.67,98,54,2.21
RU,{'klichka'},50.4457,117.996,55.83,55.83,89,100,4.12
BO,{'riberalta'},-10.9833,-66.1,82.6,82.6,65,41,0.0
BR,{'soure'},-0.7167,-48.5233,79.36,79.36,82,100,10.94
IN,{'nagpur'},21.15,79.1,76.84,76.84,79,100,5.7
MN,{'darhan'},49.4867,105.9228,61.5,61.5,86,3,1.1
BJ,{'cotonou'},6.3654,2.4183,77.02,77.02,87,100,12.21
UA,{'osypenko'},46.9136,36.8253,73.89,73.89,67,100,5.12
LY,{'mizdah'},31.4451,12.9801,84.04,84.04,18,2,4.83
JP,{'hasaki'},35.7333,140.8333,75.6,75.6,88,100,6.06
US,{'owosso'},42.9978,-84.1766,78.51,81.18,72,1,3.0
KZ,{'zhezkazgan'},47.8043,67.7144,63.55,63.55,55,50,11.52
US,{'north bend'},43.4065,-124.2243,68.34,83.91,72,1,9.22
ZM,{'samfya'},-11.3649,29.5565,58.62,58.62,42,0,6.17
MR,{'nouadhibou'},20.931,-17.0347,71.58,71.58,78,0,19.57
AO,{'benguela'},-12.5763,13.4055,70.77,70.77,88,15,6.6
RU,{'leningradskiy'},69.3833,178.4167,38.59,38.59,77,100,8.34
RU,{'dzhebariki-khaya'},62.2167,135.8,70.77,70.77,44,100,3.67
CO,{'mosquera'},4.7059,-74.2302,62.69,62.69,51,40,2.3
CD,{'bondo'},3.8146,23.6866,67.96,67.96,98,55,0.96
UA,{'hoshcha'},50.6003,26.6744,60.62,60.62,75,8,7.92
DE,{'altona'},53.55,9.9333,58.46,60.46,92,3,0.0
CA,{'nipawin'},53.3668,-104.0009,62.64,62.64,63,75,23.02
CA,{'carberry'},49.8689,-99.3602,73.63,73.63,46,73,12.55
VE,{'calabozo'},8.9242,-67.4293,77.86,77.86,86,78,0.54
NO,{'honningsvag'},70.9821,25.9704,52.97,52.97,94,100,14.52
RU,{'tyret pervaya'},53.6703,102.3106,57.02,57.02,79,7,4.45
CD,{'mbandaka'},0.0487,18.2603,71.74,71.74,82,97,2.51
CD,{'kasongo-lunda'},-6.4667,16.8167,75.42,75.42,30,3,2.1
MX,{'cabo san lucas'},22.8909,-109.9124,86.14,88.52,75,40,1.01
US,{'destin'},30.3935,-86.4958,88.12,90.64,72,1,6.91
FO,{'klaksvik'},62.2266,-6.589,54.52,54.52,93,100,15.48
VE,{'san cristobal'},7.7669,-72.225,78.98,78.98,90,93,4.12
IN,{'sadri'},25.1833,73.4333,76.44,76.44,76,76,8.5
US,{'asheboro'},35.7079,-79.8136,80.65,88.86,76,40,0.0
GF,{'sinnamary'},5.3833,-52.95,77.7,77.7,87,100,7.29
CU,{'nuevitas'},21.5453,-77.2644,85.44,85.44,72,6,10.42
US,{'iberia'},29.9502,-91.7507,76.69,80.98,94,1,6.91
ID,{'merauke'},-8.4667,140.3333,78.42,78.42,81,53,13.87
BB,{'bathsheba'},13.2167,-59.5167,83.01,83.01,78,40,17.27
AU,{'murray bridge'},-35.1167,139.2667,55.24,57.13,81,3,9.4
RU,{'berezovyy'},51.6667,135.7,65.98,65.98,57,15,1.72
RU,{'pionerskiy'},54.9508,20.2275,55.24,55.24,74,4,13.06
RU,{'anadyr'},64.75,177.4833,45.1,45.1,81,75,11.18
CA,{'flin flon'},54.7682,-101.865,60.64,60.64,63,75,13.8
SO,{'bandarbeyla'},9.4942,50.8122,75.58,75.58,84,51,26.73
RU,{'mnogovershinnyy'},53.9353,139.9242,63.57,63.57,52,8,4.16
IR,{'meybod'},32.2501,54.0166,80.62,80.62,11,0,4.54
GB,{'aviemore'},57.1955,-3.8259,50.68,54.82,95,88,4.41
MY,{'miri'},4.4148,114.0089,77.14,77.14,94,20,5.75
MX,{'san quintin'},30.4833,-115.95,76.23,76.23,63,1,9.53
TM,{'dasoguz'},41.8363,59.9666,75.15,75.15,50,0,4.61
BR,{'parauna'},-16.9478,-50.4486,75.15,75.15,22,12,6.22
RU,{'plyussa'},58.4308,29.3654,56.5,56.5,86,51,3.91
BR,{'pinhao'},-25.6956,-51.6597,57.2,57.2,80,83,1.81
EG,{'sohag'},26.557,31.6948,84.49,84.49,25,0,6.44
AU,{'mackay'},-21.15,149.2,72.05,72.05,82,82,15.95
RU,{'zhigansk'},66.7697,123.3711,60.39,60.39,65,99,2.48
AU,{'bundaberg'},-24.85,152.35,68.29,68.29,77,75,10.36
PH,{'gigmoto'},13.7796,124.39,82.15,82.15,79,99,4.03
US,{'laguna'},38.421,-121.4238,101.84,108.43,22,1,4.0
